[
  {
    "name": "Code Academy",
    "slug": "code-academy",
    "description": "A comprehensive coding bootcamp offering courses in various programming languages and technologies.",
    "website": "https://www.codeacademy.com",
    "phone": "1234567890",
    "email": "contact@codeacademy.com",
    "address": "123 Main Street, New Londo, USA",
    "location": {
      "type": "Fullstack Development",
      "coordinates": [-73.935242, 40.73061],
      "formattedAddress": "123 Main Street, New Londo, USA",
      "street": "123 Main Street",
      "city": "New Londo",
      "state": "NY",
      "zipCode": "10001",
      "country": "USA"
    },
    "averageRating": 9,
    "photo": "code-academy.jpg",
    "housing": true,
    "jobAssistance": true,
    "jobGuarantee": false,
    "acceptGi": true
  },
  {
    "name": "Tech Bootcamp",
    "slug": "tech-bootcamp",
    "description": "An immersive program to master full-stack web development.",
    "website": "https://www.techbootcamp.com",
    "phone": "9876543210",
    "email": "info@techbootcamp.com",
    "address": "456 Elm Street, Metropolis, USA",
    "location": {
      "type": "Fullstack Development",
      "coordinates": [-74.006, 40.7128],
      "formattedAddress": "456 Elm Street, Metropolis, USA",
      "street": "456 Elm Street",
      "city": "Metropolis",
      "state": "NY",
      "zipCode": "10002",
      "country": "USA"
    },
    "averageRating": 8,
    "photo": "tech-bootcamp.jpg",
    "housing": true,
    "jobAssistance": true,
    "jobGuarantee": false,
    "acceptGi": true
  },
  {
    "name": "Data Science Institute",
    "slug": "data-science-institute",
    "description": "Comprehensive courses in data science and machine learning.",
    "website": "https://www.datascienceinstitute.com",
    "phone": "1231231234",
    "email": "contact@datascienceinstitute.com",
    "address": "789 Pine Street, Gotham, USA",
    "location": {
      "type": "Data Science",
      "coordinates": [-122.4194, 37.7749],
      "formattedAddress": "789 Pine Street, Gotham, USA",
      "street": "789 Pine Street",
      "city": "Gotham",
      "state": "CA",
      "zipCode": "94103",
      "country": "USA"
    },
    "averageRating": 9,
    "photo": "data-science-institute.jpg",
    "housing": false,
    "jobAssistance": true,
    "jobGuarantee": true,
    "acceptGi": true
  },
  {
    "name": "AI Academy",
    "slug": "ai-academy",
    "description": "Leading edge courses in artificial intelligence and machine learning.",
    "website": "https://www.aiacademy.com",
    "phone": "4564564567",
    "email": "hello@aiacademy.com",
    "address": "321 Oak Street, Star City, USA",
    "location": {
      "type": "Machine Learning",
      "coordinates": [-118.2437, 34.0522],
      "formattedAddress": "321 Oak Street, Star City, USA",
      "street": "321 Oak Street",
      "city": "Star City",
      "state": "CA",
      "zipCode": "90001",
      "country": "USA"
    },
    "averageRating": 10,
    "photo": "ai-academy.jpg",
    "housing": true,
    "jobAssistance": false,
    "jobGuarantee": true,
    "acceptGi": false
  },
  {
    "name": "Mobile Dev School",
    "slug": "mobile-dev-school",
    "description": "Hands-on training for mobile app development.",
    "website": "https://www.mobiledevschool.com",
    "phone": "7897897890",
    "email": "support@mobiledevschool.com",
    "address": "654 Cedar Street, Central City, USA",
    "location": {
      "type": "Mobile Development",
      "coordinates": [-71.0589, 42.3601],
      "formattedAddress": "654 Cedar Street, Central City, USA",
      "street": "654 Cedar Street",
      "city": "Central City",
      "state": "MA",
      "zipCode": "02108",
      "country": "USA"
    },
    "averageRating": 7,
    "photo": "mobile-dev-school.jpg",
    "housing": false,
    "jobAssistance": true,
    "jobGuarantee": false,
    "acceptGi": true
  },
  {
    "name": "Game Dev Academy",
    "slug": "game-dev-academy",
    "description": "Learn game development from industry experts.",
    "website": "https://www.gamedevacademy.com",
    "phone": "3213214321",
    "email": "info@gamedevacademy.com",
    "address": "987 Birch Street, Coast City, USA",
    "location": {
      "type": "Game Development",
      "coordinates": [-80.1918, 25.7617],
      "formattedAddress": "987 Birch Street, Coast City, USA",
      "street": "987 Birch Street",
      "city": "Coast City",
      "state": "FL",
      "zipCode": "33101",
      "country": "USA"
    },
    "averageRating": 8,
    "photo": "game-dev-academy.jpg",
    "housing": true,
    "jobAssistance": false,
    "jobGuarantee": false,
    "acceptGi": false
  }
]
